[
    {"address": "Toronto, ON", "latitude": 43.65107, "longitude": -79.347015},
    {"address": "Mississauga, ON", "latitude": 43.589045, "longitude": -79.64412},
    {"address": "Brampton, ON", "latitude": 43.731548, "longitude": -79.762418},
    {"address": "Oakville, ON", "latitude": 43.467517, "longitude": -79.687666},
    {"address": "Vaughan, ON", "latitude": 43.836101, "longitude": -79.498954},
    {"address": "Richmond Hill, ON", "latitude": 43.878547, "longitude": -79.435682},
    {"address": "Markham, ON", "latitude": 43.8561, "longitude": -79.337019},
    {"address": "Burlington, ON", "latitude": 43.32552, "longitude": -79.799031},
    {"address": "Pickering, ON", "latitude": 43.835017, "longitude": -79.089375},
    {"address": "Ajax, ON", "latitude": 43.850857, "longitude": -79.020374},
    {"address": "Whitby, ON", "latitude": 43.897545, "longitude": -78.942932},
    {"address": "Oshawa, ON", "latitude": 43.897093, "longitude": -78.865791},
    {"address": "Milton, ON", "latitude": 43.518299, "longitude": -79.877404},
    {"address": "Georgetown, ON", "latitude": 43.646523, "longitude": -79.921152},
    {"address": "Newmarket, ON", "latitude": 44.059187, "longitude": -79.461256},
    {"address": "Aurora, ON", "latitude": 44.00648, "longitude": -79.450396},
    {"address": "King City, ON", "latitude": 43.9215, "longitude": -79.52806},
    {"address": "Caledon, ON", "latitude": 43.86682, "longitude": -79.982817},
    {"address": "Bolton, ON", "latitude": 43.874816, "longitude": -79.735395},
    {"address": "Stouffville, ON", "latitude": 43.97024, "longitude": -79.244865},
    {"address": "Uxbridge, ON", "latitude": 44.109467, "longitude": -79.120054},
    {"address": "Nobleton, ON", "latitude": 43.92897, "longitude": -79.648198},
    {"address": "Port Perry, ON", "latitude": 44.105219, "longitude": -78.944776},
    {"address": "Brooklin, ON", "latitude": 43.9626, "longitude": -78.9501},
    {"address": "Claremont, ON", "latitude": 44.03889, "longitude": -79.0791},
    {"address": "Mount Albert, ON", "latitude": 44.1168, "longitude": -79.321},
    {"address": "Tottenham, ON", "latitude": 44.0203, "longitude": -79.8056},
    {"address": "Beeton, ON", "latitude": 44.0808, "longitude": -79.7828},
    {"address": "Schomberg, ON", "latitude": 44.0114, "longitude": -79.6855},
    {"address": "Alton, ON", "latitude": 43.8869, "longitude": -80.0677},
    {"address": "Palgrave, ON", "latitude": 43.9527, "longitude": -79.8721},
    {"address": "Orangeville, ON", "latitude": 43.919978, "longitude": -80.094311},
    {"address": "Acton, ON", "latitude": 43.6334, "longitude": -80.0422},
    {"address": "Mono, ON", "latitude": 44.0009, "longitude": -80.0662},
    {"address": "Rockwood, ON", "latitude": 43.6177, "longitude": -80.1426},
    {"address": "Fergus, ON", "latitude": 43.7055, "longitude": -80.3771},
    {"address": "Elora, ON", "latitude": 43.6856, "longitude": -80.4308},
    {"address": "Erin, ON", "latitude": 43.7688, "longitude": -80.0682},
    {"address": "Puslinch, ON", "latitude": 43.4743, "longitude": -80.1577},
    {"address": "Guelph, ON", "latitude": 43.5448, "longitude": -80.2482},
    {"address": "East Gwillimbury, ON", "latitude": 44.0738, "longitude": -79.4321},
    {"address": "Bradford, ON", "latitude": 44.1148, "longitude": -79.5666},
    {"address": "Barrie, ON", "latitude": 44.3894, "longitude": -79.6903},
    {"address": "Innisfil, ON", "latitude": 44.3001, "longitude": -79.6118},
    {"address": "Keswick, ON", "latitude": 44.2257, "longitude": -79.4676},
    {"address": "Sutton, ON", "latitude": 44.3007, "longitude": -79.3634},
    {"address": "Pefferlaw, ON", "latitude": 44.3179, "longitude": -79.2294},
    {"address": "Zephyr, ON", "latitude": 44.1626, "longitude": -79.2626},
    {"address": "Holland Landing, ON", "latitude": 44.0966, "longitude": -79.4932},
    {"address": "Cookstown, ON", "latitude": 44.2327, "longitude": -79.6871},
    {"address": "Minesing, ON", "latitude": 44.4663, "longitude": -79.8294},
    {"address": "Oro-Medonte, ON", "latitude": 44.5183, "longitude": -79.5415},
    {"address": "Orillia, ON", "latitude": 44.6082, "longitude": -79.4186},
    {"address": "Coldwater, ON", "latitude": 44.6942, "longitude": -79.6421},
    {"address": "Severn, ON", "latitude": 44.7242, "longitude": -79.5375},
    {"address": "Port McNicoll, ON", "latitude": 44.7429, "longitude": -79.7754},
    {"address": "Victoria Harbour, ON", "latitude": 44.7515, "longitude": -79.8023},
    {"address": "Midland, ON", "latitude": 44.7496, "longitude": -79.8895},
    {"address": "Penetanguishene, ON", "latitude": 44.768, "longitude": -79.9312},
    {"address": "Wasaga Beach, ON", "latitude": 44.5205, "longitude": -80.0164},
    {"address": "Collingwood, ON", "latitude": 44.5008, "longitude": -80.2169},
    {"address": "Thornbury, ON", "latitude": 44.5632, "longitude": -80.4571},
    {"address": "Meaford, ON", "latitude": 44.6057, "longitude": -80.5948},
    {"address": "Chatsworth, ON", "latitude": 44.4364, "longitude": -80.9346},
    {"address": "Markdale, ON", "latitude": 44.3193, "longitude": -80.6475},
    {"address": "Durham, ON", "latitude": 44.1769, "longitude": -80.8253},
    {"address": "Flesherton, ON", "latitude": 44.1811, "longitude": -80.5528},
    {"address": "Shelburne, ON", "latitude": 44.0805, "longitude": -80.2047},
    {"address": "Grand Valley, ON", "latitude": 43.9023, "longitude": -80.3149},
    {"address": "Caledon East, ON", "latitude": 43.8811, "longitude": -79.8712},
    {"address": "Waterdown, ON", "latitude": 43.3326, "longitude": -79.8948},
    {"address": "Carlisle, ON", "latitude": 43.3965, "longitude": -79.9803},
    {"address": "Dundas, ON", "latitude": 43.2665, "longitude": -79.9533},
    {"address": "Ancaster, ON", "latitude": 43.2164, "longitude": -79.9873},
    {"address": "Binbrook, ON", "latitude": 43.1208, "longitude": -79.7891},
    {"address": "Hamilton, ON", "latitude": 43.2557, "longitude": -79.8711},
    {"address": "Stoney Creek, ON", "latitude": 43.2187, "longitude": -79.7396},
    {"address": "Grimsby, ON", "latitude": 43.2003, "longitude": -79.5606},
    {"address": "Lincoln, ON", "latitude": 43.1698, "longitude": -79.4316},
    {"address": "Beamsville, ON", "latitude": 43.1677, "longitude": -79.4755},
    {"address": "Smithville, ON", "latitude": 43.1244, "longitude": -79.5452},
    {"address": "Niagara Falls, ON", "latitude": 43.0896, "longitude": -79.0849},
    {"address": "Niagara-on-the-Lake, ON", "latitude": 43.2541, "longitude": -79.0718},
    {"address": "Welland, ON", "latitude": 42.9935, "longitude": -79.2484},
    {"address": "Port Colborne, ON", "latitude": 42.9018, "longitude": -79.2324},
    {"address": "Thorold, ON", "latitude": 43.1203, "longitude": -79.1993},
    {"address": "Pelham, ON", "latitude": 43.0454, "longitude": -79.3293},
    {"address": "Wainfleet, ON", "latitude": 42.9176, "longitude": -79.3832},
    {"address": "Fenwick, ON", "latitude": 43.0242, "longitude": -79.3656},
    {"address": "St. Catharines, ON", "latitude": 43.1594, "longitude": -79.2469},
    {"address": "Fort Erie, ON", "latitude": 42.9048, "longitude": -78.9333},
    {"address": "Burlington South, ON", "latitude": 43.3273, "longitude": -79.8158},
    {"address": "New Toronto, ON", "latitude": 43.6006, "longitude": -79.5128},
    {"address": "Hannon, ON", "latitude": 43.1805, "longitude": -79.8033},
    {"address": "Lynden, ON", "latitude": 43.2622, "longitude": -80.1739},
    {"address": "Caistorville, ON", "latitude": 43.0583, "longitude": -79.6039},
    {"address": "Jordan Station, ON", "latitude": 43.1477, "longitude": -79.3671},
    {"address": "Winona, ON", "latitude": 43.2091, "longitude": -79.6646},
    {"address": "Jordan Harbour, ON", "latitude": 43.1604, "longitude": -79.3766},
    {"address": "Clarksburg, ON", "latitude": 44.5495, "longitude": -80.4455}
]
